{"version": 0.6, "generator": "Overpass API 0.7.57 93a4d346", "osm3s": {"timestamp_osm_base": "2021-11-07T15:24:09Z", "copyright": "The data included in this document is from www.openstreetmap.org. The data is made available under ODbL."}, "elements": [{"type": "node", "id": 4340242854, "lat": 44.8827283, "lon": 13.7532235}, {"type": "node", "id": 4340242855, "lat": 44.8977685, "lon": 13.7969726}, {"type": "node", "id": 4340242856, "lat": 44.9009461, "lon": 13.7136689}, {"type": "node", "id": 4340242857, "lat": 44.9021007, "lon": 13.8033115}, {"type": "node", "id": 4340242858, "lat": 44.9247692, "lon": 13.7796421}, {"type": "node", "id": 4340242859, "lat": 44.9454288, "lon": 13.7097697}, {"type": "node", "id": 4340242860, "lat": 44.9491942, "lon": 13.7397694}, {"type": "way", "id": 436146145, "nodes": [4340242854, 4340242855, 4340242857, 4340242858, 4340242860, 4340242859, 4340242856, 4340242854], "tags": {"boundary": "national_park", "leisure": "nature_reserve", "name": "Nacionalni park Brijuni", "name:de": "Nationalpark Brijuni-Inseln", "name:en": "Brijuni Islands National Park", "name:hr": "Nacionalni park Brijuni", "name:it": "Parco Nazionale delle Isole Brioni", "name:sl": "Brioni", "protect_class": "2", "short_name": "Brijuni", "website": "http://www.brijuni.hr/", "wikidata": "Q26799668", "wikipedia": "nl:Nationaal Park Brijuni"}}]}